name,latitude,longitude,type,descriptions,image
tuna,33.771482,-84.439396,fish,Tuna is a beautiful fish,https://www.un.org/en/events/tunaday/assets/img/featured-image-index-sm.jpg
cactus,33.775650,-84.436490,plant,Cactus is very nice,https://images.homedepot-static.com/productImages/2271ed2f-8ce4-4547-9cf2-a04beb1cb38d/svn/nearly-natural-artificial-plants-6328-64_1000.jpg
mosquito,33.774282,-84.439800,insect,Mosquito is bad,https://cdn.orkin.com/images/mosquitoes/mosquito-illustration_2092x1660.jpg
deer,33.774682,-84.446650,animal,Deer is Cute,https://images.pexels.com/photos/34231/antler-antler-carrier-fallow-deer-hirsch.jpg?auto=compress&cs=tinysrgb&dpr=1&w=500
Tall Goldenrod (Solidago altissima),33.779112,-84.437013,plants,Plants,https://static.inaturalist.org/photos/5212858/large.jpg?1476388071